     2.12           OBSERVATION DATA    M: Mixed            RINEX VERSION / TYPE
RtkConv Qt demo5 b34                    20240621 141903 UTC PGM / RUN BY / DATE 
format: RINEX                                               COMMENT             
log: /home/hades/Desktop/Projects/Data/SkyDelSim/Log1/SkydelCOMMENT             
SKYDEL                                                      MARKER NAME         
Unknown                                                     MARKER NUMBER       
                                                            OBSERVER / AGENCY   
Unknown             Unknown                                 REC # / TYPE / VERS 
Unknown             Unknown                                 ANT # / TYPE        
        0.0000        0.0000        0.0000                  APPROX POSITION XYZ 
        0.0000        0.0000        0.0000                  ANTENNA: DELTA H/E/N
     1     1                                                WAVELENGTH FACT L1/2
     6    CA    LA    DA    CC    LC    DC                  # / TYPES OF OBSERV 
  2024    01    02    10    00   00.5000000     GPS         TIME OF FIRST OBS   
  2024    01    02    10    00   59.9000000     GPS         TIME OF LAST OBS    
                                                            END OF HEADER       
 24 01 02 10 00 00.5000000  0  7G32G23G18G27G10G24G15
  22909922.449 7 120392455.05217      2605.077    20082292.506 7  82233630.70917
      -625.357  
  20702875.816 7 108794346.71617       579.301    21012803.902 7  86043919.32517
       288.851  
  20082292.506 7 105533159.40917      -802.541    22909922.449 7  93812302.63817
      2029.930  
  23523028.273 7 123614347.90417       178.980    23523028.273 7  96322868.49717
       139.465  
  22432705.149 7 117884661.21217      1917.514    22432705.149 7  91858177.56817
      1494.166  
  21012803.902 7 110423029.80017       370.692    21550430.212 7  88245409.19117
     -2157.498  
  21550430.212 7 113248275.12817     -2768.790    20702875.816 7  84774815.62317
       451.404  
 24 01 02 10 00 00.6000000  0  7G32G23G18G27G10G24G15
  22909872.879 7 120392194.559 7      2604.788    20082307.779 7  82233693.250 7
      -625.480  
  20702864.790 7 108794288.775 7       579.529    21012796.849 7  86043890.443 7
       288.787  
  20082307.779 7 105533239.671 7      -802.699    22909872.879 7  93812099.656 7
      2029.705  
  23523024.866 7 123614329.999 7       179.120    23523024.866 7  96322854.545 7
       139.574  
  22432668.657 7 117884469.450 7      1917.728    22432668.657 7  91858028.143 7
      1494.334  
  21012796.849 7 110422992.735 7       370.610    21550482.898 7  88245624.930 7
     -2157.293  
  21550482.898 7 113248551.994 7     -2768.526    20702864.790 7  84774770.474 7
       451.581  
 24 01 02 10 00 00.7000000  0  7G32G23G18G27G10G24G15
  22909823.314 7 120391934.094 7      2604.502    20082323.056 7  82233755.805 7
      -625.603  
  20702853.760 7 108794230.811 7       579.756    21012789.797 7  86043861.568 7
       288.723  
  20082323.056 7 105533319.949 7      -802.857    22909823.314 7  93811896.697 7
      2029.482  
  23523021.456 7 123614312.080 7       179.258    23523021.456 7  96322840.582 7
       139.682  
  22432632.162 7 117884277.666 7      1917.941    22432632.162 7  91857878.701 7
      1494.500  
  21012789.797 7 110422955.678 7       370.528    21550535.579 7  88245840.649 7
     -2157.089  
  21550535.579 7 113248828.833 7     -2768.264    20702853.760 7  84774725.307 7
       451.758  
 24 01 02 10 00 00.8000000  0  7G32G23G18G27G10G24G15
  22909773.755 7 120391673.658 7      2604.217    20082338.335 7  82233818.371 7
      -625.726  
  20702842.726 7 108794172.824 7       579.981    21012782.747 7  86043832.699 7
       288.659  
  20082338.335 7 105533400.243 7      -803.014    22909773.755 7  93811693.759 7
      2029.260  
  23523018.044 7 123614294.147 7       179.395    23523018.044 7  96322826.608 7
       139.788  
  22432595.663 7 117884085.861 7      1918.153    22432595.663 7  91857729.243 7
      1494.665  
  21012782.747 7 110422918.630 7       370.446    21550588.255 7  88246056.348 7
     -2156.886  
  21550588.255 7 113249105.647 7     -2768.004    20702842.726 7  84774680.122 7
       451.933  
 24 01 02 10 00 00.9000000  0  7G32G23G18G27G10G24G15
  22909724.201 7 120391413.250 7      2603.935    20082353.617 7  82233880.950 7
      -625.848  
  20702831.687 7 108794114.815 7       580.203    21012775.699 7  86043803.836 7
       288.596  
  20082353.617 7 105533480.552 7      -803.171    22909724.201 7  93811490.844 7
      2029.040  
  23523014.629 7 123614276.201 7       179.531    23523014.629 7  96322812.624 7
       139.894  
  22432559.160 7 117883894.036 7      1918.363    22432559.160 7  91857579.768 7
      1494.828  
  21012775.699 7 110422881.589 7       370.364    21550640.926 7  88246272.026 7
     -2156.686  
  21550640.926 7 113249382.434 7     -2767.746    20702831.687 7  84774634.920 7
       452.107  
 24 01 02 10 00 01.0000000  0  7G32G23G18G27G10G24G15
  22909674.652 7 120391152.871 7      2603.654    20082368.903 7  82233943.541 7
      -625.969  
  20702820.644 7 108794056.783 7       580.425    21012768.652 7  86043774.979 7
       288.532  
  20082368.903 7 105533560.877 7      -803.327    22909674.652 7  93811287.951 7
      2028.821  
  23523011.211 7 123614258.241 7       179.665    23523011.211 7  96322798.630 7
       139.998  
  22432522.653 7 117883702.189 7      1918.572    22432522.653 7  91857430.277 7
      1494.991  
  21012768.652 7 110422844.557 7       370.283    21550693.592 7  88246487.685 7
     -2156.486  
  21550693.592 7 113249659.196 7     -2767.491    20702820.644 7  84774589.701 7
       452.279  
 24 01 02 10 00 01.1000000  0  7G32G23G18G27G10G24G15
  22909625.109 7 120390892.520 7      2603.375    20082384.191 7  82234006.143 7
      -626.090  
  20702809.597 7 108793998.730 7       580.644    21012761.606 7  86043746.129 7
       288.469  
  20082384.191 7 105533641.217 7      -803.482    22909625.109 7  93811085.080 7
      2028.604  
  23523007.791 7 123614240.268 7       179.797    23523007.791 7  96322784.625 7
       140.102  
  22432486.141 7 117883510.321 7      1918.779    22432486.141 7  91857280.770 7
      1495.152  
  21012761.606 7 110422807.533 7       370.201    21550746.253 7  88246703.324 7
     -2156.289  
  21550746.253 7 113249935.932 7     -2767.237    20702809.597 7  84774544.465 7
       452.450  
 24 01 02 10 00 01.2000000  0  7G32G23G18G27G10G24G15
  22909575.571 7 120390632.196 7      2603.098    20082399.482 7  82234068.758 7
      -626.210  
  20702798.545 7 108793940.654 7       580.862    21012754.562 7  86043717.286 7
       288.405  
  20082399.482 7 105533721.573 7      -803.637    22909575.571 7  93810882.231 7
      2028.388  
  23523004.368 7 123614222.282 7       179.929    23523004.368 7  96322770.609 7
       140.204  
  22432449.626 7 117883318.433 7      1918.984    22432449.626 7  91857131.247 7
      1495.312  
  21012754.562 7 110422770.517 7       370.120    21550798.909 7  88246918.943 7
     -2156.092  
  21550798.909 7 113250212.643 7     -2766.985    20702798.545 7  84774499.211 7
       452.620  
 24 01 02 10 00 01.3000000  0  7G32G23G18G27G10G24G15
  22909526.038 7 120390371.900 7      2602.822    20082414.776 7  82234131.386 7
      -626.330  
  20702787.490 7 108793882.557 7       581.078    21012747.520 7  86043688.448 7
       288.342  
  20082414.776 7 105533801.945 7      -803.791    22909526.038 7  93810679.403 7
      2028.173  
  23523000.943 7 123614204.283 7       180.058    23523000.943 7  96322756.584 7
       140.305  
  22432413.107 7 117883126.525 7      1919.188    22432413.107 7  91856981.707 7
      1495.471  
  21012747.520 7 110422733.509 7       370.039    21550851.561 7  88247134.542 7
     -2155.898  
  21550851.561 7 113250489.329 7     -2766.735    20702787.490 7  84774453.941 7
       452.788  
 24 01 02 10 00 01.4000000  0  7G32G23G18G27G10G24G15
  22909476.511 7 120390111.631 7      2602.549    20082430.074 7  82234194.025 7
      -626.450  
  20702776.430 7 108793824.439 7       581.292    21012740.479 7  86043659.617 7
       288.279  
  20082430.074 7 105533882.331 7      -803.944    22909476.511 7  93810476.596 7
      2027.960  
  23522997.515 7 123614186.270 7       180.187    23522997.515 7  96322742.548 7
       140.405  
  22432376.584 7 117882934.596 7      1919.391    22432376.584 7  91856832.152 7
      1495.629  
  21012740.479 7 110422696.509 7       369.957    21550904.208 7  88247350.122 7
     -2155.704  
  21550904.208 7 113250765.990 7     -2766.487    20702776.430 7  84774408.654 7
       452.955  
 24 01 02 10 00 01.5000000  0  7G32G23G18G27G10G24G15
  22909426.989 7 120389851.390 7      2602.277    20082445.374 7  82234256.675 7
      -626.569  
  20702765.367 7 108793766.299 7       581.505    21012733.440 7  86043630.793 7
       288.215  
  20082445.374 7 105533962.734 7      -804.096    22909426.989 7  93810273.810 7
      2027.748  
  23522994.085 7 123614168.245 7       180.314    23522994.085 7  96322728.503 7
       140.504  
  22432340.058 7 117882742.647 7      1919.592    22432340.058 7  91856682.582 7
      1495.786  
  21012733.440 7 110422659.517 7       369.876    21550956.850 7  88247565.683 7
     -2155.513  
  21550956.850 7 113251042.627 7     -2766.241    20702765.367 7  84774363.350 7
       453.121  
 24 01 02 10 00 01.6000000  0  7G32G23G18G27G10G24G15
  22909377.472 7 120389591.176 7      2602.007    20082460.676 7  82234319.338 7
      -626.687  
  20702754.299 7 108793708.138 7       581.716    21012726.402 7  86043601.974 7
       288.152  
  20082460.676 7 105534043.151 7      -804.248    22909377.472 7  93810071.046 7
      2027.538  
  23522990.653 7 123614150.207 7       180.440    23522990.653 7  96322714.447 7
       140.602  
  22432303.527 7 117882550.677 7      1919.791    22432303.527 7  91856532.995 7
      1495.941  
  21012726.402 7 110422622.534 7       369.795    21551009.487 7  88247781.225 7
     -2155.323  
  21551009.487 7 113251319.239 7     -2765.997    20702754.299 7  84774318.030 7
       453.285  
 24 01 02 10 00 01.7000000  0  7G32G23G18G27G10G24G15
  22909327.960 7 120389330.989 7      2601.738    20082475.982 7  82234382.013 7
      -626.805  
  20702743.227 7 108793649.956 7       581.925    21012719.366 7  86043573.162 7
       288.089  
  20082475.982 7 105534123.583 7      -804.400    22909327.960 7  93809868.303 7
      2027.329  
  23522987.218 7 123614132.157 7       180.564    23522987.218 7  96322700.382 7
       140.699  
  22432266.993 7 117882358.688 7      1919.989    22432266.993 7  91856383.394 7
      1496.096  
  21012719.366 7 110422585.558 7       369.714    21551062.120 7  88247996.748 7
     -2155.134  
  21551062.120 7 113251595.826 7     -2765.755    20702743.227 7  84774272.693 7
       453.448  
 24 01 02 10 00 01.8000000  0  7G32G23G18G27G10G24G15
  22909278.453 7 120389070.828 7      2601.472    20082491.291 7  82234444.699 7
      -626.922  
  20702732.152 7 108793591.753 7       582.133    21012712.331 7  86043544.356 7
       288.026  
  20082491.291 7 105534204.031 7      -804.550    22909278.453 7  93809665.580 7
      2027.121  
  23522983.781 7 123614114.095 7       180.687    23522983.781 7  96322686.308 7
       140.795  
  22432230.455 7 117882166.680 7      1920.186    22432230.455 7  91856233.776 7
      1496.249  
  21012712.331 7 110422548.591 7       369.634    21551114.748 7  88248212.252 7
     -2154.947  
  21551114.748 7 113251872.390 7     -2765.515    20702732.152 7  84774227.340 7
       453.610  
 24 01 02 10 00 01.9000000  0  7G32G23G18G27G10G24G15
  22909228.951 7 120388810.694 7      2601.207    20082506.602 7  82234507.397 7
      -627.039  
  20702721.072 7 108793533.529 7       582.339    21012705.298 7  86043515.557 7
       287.963  
  20082506.602 7 105534284.493 7      -804.700    22909228.951 7  93809462.879 7
      2026.915  
  23522980.341 7 123614096.020 7       180.809    23522980.341 7  96322672.223 7
       140.890  
  22432193.913 7 117881974.651 7      1920.381    22432193.913 7  91856084.144 7
      1496.401  
  21012705.298 7 110422511.631 7       369.553    21551167.372 7  88248427.737 7
     -2154.761  
  21551167.372 7 113252148.929 7     -2765.277    20702721.072 7  84774181.971 7
       453.771  
 24 01 02 10 00 02.0000000  0  7G32G23G18G27G10G24G15
  22909179.454 7 120388550.587 7      2600.944    20082521.917 7  82234570.107 7
      -627.156  
  20702709.989 7 108793475.285 7       582.544    21012698.266 7  86043486.764 7
       287.901  
  20082521.917 7 105534364.971 7      -804.850    22909179.454 7  93809260.197 7
      2026.709  
  23522976.899 7 123614077.933 7       180.929    23522976.899 7  96322658.130 7
       140.984  
  22432157.368 7 117881782.603 7      1920.575    22432157.368 7  91855934.496 7
      1496.552  
  21012698.266 7 110422474.680 7       369.472    21551219.991 7  88248643.204 7
     -2154.577  
  21551219.991 7 113252425.445 7     -2765.040    20702709.989 7  84774136.586 7
       453.930  
 24 01 02 10 00 02.1000000  0  7G32G23G18G27G10G24G15
  22909129.962 7 120388290.506 7      2600.682    20082537.234 7  82234632.828 7
      -627.272  
  20702698.901 7 108793417.021 7       582.746    21012691.236 7  86043457.977 7
       287.838  
  20082537.234 7 105534445.463 7      -804.999    22909129.962 7  93809057.537 7
      2026.506  
  23522973.455 7 123614059.834 7       181.048    23522973.455 7  96322644.027 7
       141.077  
  22432120.818 7 117881590.536 7      1920.767    22432120.818 7  91855784.833 7
      1496.702  
  21012691.236 7 110422437.737 7       369.392    21551272.606 7  88248858.653 7
     -2154.394  
  21551272.606 7 113252701.938 7     -2764.806    20702698.901 7  84774091.185 7
       454.088  
 24 01 02 10 00 02.2000000  0  7G32G23G18G27G10G24G15
  22909080.475 7 120388030.450 7      2600.422    20082552.554 7  82234695.561 7
      -627.387  
  20702687.810 7 108793358.736 7       582.948    21012684.208 7  86043429.196 7
       287.775  
  20082552.554 7 105534525.970 7      -805.147    22909080.475 7  93808854.896 7
      2026.303  
  23522970.009 7 123614041.723 7       181.166    23522970.009 7  96322629.914 7
       141.168  
  22432084.266 7 117881398.450 7      1920.958    22432084.266 7  91855635.156 7
      1496.851  
  21012684.208 7 110422400.802 7       369.311    21551325.216 7  88249074.083 7
     -2154.213  
  21551325.216 7 113252978.406 7     -2764.573    20702687.810 7  84774045.768 7
       454.245  
 24 01 02 10 00 02.3000000  0  7G32G23G18G27G10G24G15
  22909030.993 7 120387770.421 7      2600.164    20082567.877 7  82234758.306 7
      -627.502  
  20702676.715 7 108793300.431 7       583.147    21012677.181 7  86043400.422 7
       287.713  
  20082567.877 7 105534606.493 7      -805.295    22909030.993 7  93808652.276 7
      2026.102  
  23522966.560 7 123614023.601 7       181.283    23522966.560 7  96322615.793 7
       141.259  
  22432047.709 7 117881206.345 7      1921.148    22432047.709 7  91855485.463 7
      1496.998  
  21012677.181 7 110422363.875 7       369.231    21551377.822 7  88249289.495 7
     -2154.033  
  21551377.822 7 113253254.852 7     -2764.342    20702676.715 7  84774000.336 7
       454.401  
 24 01 02 10 00 02.4000000  0  7G32G23G18G27G10G24G15
  22908981.516 7 120387510.417 7      2599.908    20082583.202 7  82234821.062 7
      -627.617  
  20702665.616 7 108793242.106 7       583.346    21012670.155 7  86043371.654 7
       287.650  
  20082583.202 7 105534687.029 7      -805.442    22908981.516 7  93808449.676 7
      2025.902  
  23522963.110 7 123614005.467 7       181.398    23522963.110 7  96322601.663 7
       141.349  
  22432011.149 7 117881014.220 7      1921.336    22432011.149 7  91855335.756 7
      1497.145  
  21012670.155 7 110422326.956 7       369.151    21551430.424 7  88249504.889 7
     -2153.854  
  21551430.424 7 113253531.275 7     -2764.113    20702665.616 7  84773954.888 7
       454.555  
 24 01 02 10 00 02.5000000  0  7G32G23G18G27G10G24G15
  22908932.044 7 120387250.439 7      2599.653    20082598.531 7  82234883.829 7
      -627.731  
  20702654.514 7 108793183.762 7       583.542    21012663.131 7  86043342.892 7
       287.588  
  20082598.531 7 105534767.581 7      -805.588    22908932.044 7  93808247.096 7
      2025.704  
  23522959.657 7 123613987.321 7       181.512    23522959.657 7  96322587.523 7
       141.438  
  22431974.586 7 117880822.077 7      1921.523    22431974.586 7  91855186.034 7
      1497.291  
  21012663.131 7 110422290.044 7       369.071    21551483.021 7  88249720.266 7
     -2153.677  
  21551483.021 7 113253807.675 7     -2763.885    20702654.514 7  84773909.425 7
       454.708  
 24 01 02 10 00 02.6000000  0  7G32G23G18G27G10G24G15
  22908882.577 7 120386990.487 7      2599.400    20082613.862 7  82234946.608 7
      -627.845  
  20702643.407 7 108793125.398 7       583.737    21012656.109 7  86043314.136 7
       287.525  
  20082613.862 7 105534848.147 7      -805.734    22908882.577 7  93808044.535 7
      2025.506  
  23522956.202 7 123613969.165 7       181.624    23522956.202 7  96322573.375 7
       141.525  
  22431938.018 7 117880629.916 7      1921.709    22431938.018 7  91855036.298 7
      1497.435  
  21012656.109 7 110422253.141 7       368.991    21551535.614 7  88249935.625 7
     -2153.501  
  21551535.614 7 113254084.052 7     -2763.660    20702643.407 7  84773863.947 7
       454.860  
 24 01 02 10 00 02.7000000  0  7G32G23G18G27G10G24G15
  22908833.114 7 120386730.559 7      2599.148    20082629.196 7  82235009.398 7
      -627.958  
  20702632.297 7 108793067.015 7       583.931    21012649.088 7  86043285.387 7
       287.463  
  20082629.196 7 105534928.728 7      -805.879    22908833.114 7  93807841.994 7
      2025.310  
  23522952.744 7 123613950.997 7       181.736    23522952.744 7  96322559.218 7
       141.612  
  22431901.448 7 117880437.736 7      1921.893    22431901.448 7  91854886.547 7
      1497.579  
  21012649.088 7 110422216.246 7       368.911    21551588.202 7  88250150.966 7
     -2153.327  
  21551588.202 7 113254360.407 7     -2763.436    20702632.297 7  84773818.453 7
       455.011  
 24 01 02 10 00 02.8000000  0  7G32G23G18G27G10G24G15
  22908783.657 7 120386470.657 7      2598.898    20082644.533 7  82235072.200 7
      -628.071  
  20702621.184 7 108793008.612 7       584.123    21012642.069 7  86043256.644 7
       287.401  
  20082644.533 7 105535009.323 7      -806.024    22908783.657 7  93807639.473 7
      2025.115  
  23522949.285 7 123613932.817 7       181.846    23522949.285 7  96322545.053 7
       141.698  
  22431864.874 7 117880245.537 7      1922.075    22431864.874 7  91854736.782 7
      1497.721  
  21012642.069 7 110422179.359 7       368.831    21551640.787 7  88250366.290 7
     -2153.153  
  21551640.787 7 113254636.739 7     -2763.214    20702621.184 7  84773772.944 7
       455.161  
 24 01 02 10 00 02.9000000  0  7G32G23G18G27G10G24G15
  22908734.204 7 120386210.780 7      2598.650    20082659.872 7  82235135.012 7
      -628.183  
  20702610.066 7 108792950.190 7       584.313    21012635.051 7  86043227.907 7
       287.338  
  20082659.872 7 105535089.932 7      -806.168    22908734.204 7  93807436.971 7
      2024.922  
  23522945.823 7 123613914.627 7       181.955    23522945.823 7  96322530.879 7
       141.783  
  22431828.296 7 117880053.321 7      1922.257    22431828.296 7  91854587.003 7
      1497.863  
  21012635.051 7 110422142.480 7       368.751    21551693.367 7  88250581.597 7
     -2152.982  
  21551693.367 7 113254913.050 7     -2762.993    20702610.066 7  84773727.421 7
       455.309  
 24 01 02 10 00 03.0000000  0  7G32G23G18G27G10G24G15
  22908684.755 7 120385950.927 7      2598.403    20082675.215 7  82235197.836 7
      -628.295  
  20702598.945 7 108792891.749 7       584.502    21012628.034 7  86043199.176 7
       287.276  
  20082675.215 7 105535170.556 7      -806.311    22908684.755 7  93807234.489 7
      2024.730  
  23522942.360 7 123613896.427 7       182.062    23522942.360 7  96322516.696 7
       141.867  
  22431791.715 7 117879861.086 7      1922.437    22431791.715 7  91854437.210 7
      1498.003  
  21012628.034 7 110422105.609 7       368.671    21551745.943 7  88250796.887 7
     -2152.811  
  21551745.943 7 113255189.338 7     -2762.775    20702598.945 7  84773681.883 7
       455.456  
 24 01 02 10 00 03.1000000  0  7G32G23G18G27G10G24G15
  22908635.312 7 120385691.099 7      2598.158    20082690.560 7  82235260.671 7
      -628.406  
  20702587.821 7 108792833.290 7       584.690    21012621.020 7  86043170.451 7
       287.214  
  20082690.560 7 105535251.195 7      -806.454    22908635.312 7  93807032.025 7
      2024.539  
  23522938.894 7 123613878.215 7       182.169    23522938.894 7  96322502.505 7
       141.950  
  22431755.131 7 117879668.833 7      1922.616    22431755.131 7  91854287.403 7
      1498.142  
  21012621.020 7 110422068.746 7       368.592    21551798.514 7  88251012.159 7
     -2152.642  
  21551798.514 7 113255465.604 7     -2762.558    20702587.821 7  84773636.330 7
       455.602  
 24 01 02 10 00 03.2000000  0  7G32G23G18G27G10G24G15
  22908585.873 7 120385431.295 7      2597.914    20082705.907 7  82235323.517 7
      -628.517  
  20702576.693 7 108792774.811 7       584.876    21012614.006 7  86043141.733 7
       287.152  
  20082705.907 7 105535331.847 7      -806.597    22908585.873 7  93806829.581 7
      2024.349  
  23522935.427 7 123613859.993 7       182.274    23522935.427 7  96322488.306 7
       142.032  
  22431718.543 7 117879476.563 7      1922.793    22431718.543 7  91854137.581 7
      1498.281  
  21012614.006 7 110422031.891 7       368.512    21551851.082 7  88251227.415 7
     -2152.475  
  21551851.082 7 113255741.850 7     -2762.343    20702576.693 7  84773590.762 7
       455.747  
 24 01 02 10 00 03.3000000  0  7G32G23G18G27G10G24G15
  22908536.438 7 120385171.516 7      2597.672    20082721.258 7  82235386.375 7
      -628.627  
  20702565.561 7 108792716.315 7       585.060    21012606.995 7  86043113.021 7
       287.090  
  20082721.258 7 105535412.514 7      -806.738    22908536.438 7  93806627.155 7
      2024.160  
  23522931.957 7 123613841.760 7       182.378    23522931.957 7  96322474.099 7
       142.113  
  22431681.951 7 117879284.275 7      1922.970    22431681.951 7  91853987.746 7
      1498.418  
  21012606.995 7 110421995.044 7       368.433    21551903.646 7  88251442.654 7
     -2152.308  
  21551903.646 7 113256018.073 7     -2762.129    20702565.561 7  84773545.180 7
       455.891  
 24 01 02 10 00 03.4000000  0  7G32G23G18G27G10G24G15
  22908487.009 7 120384911.761 7      2597.431    20082736.611 7  82235449.243 7
      -628.737  
  20702554.426 7 108792657.800 7       585.243    21012599.984 7  86043084.315 7
       287.029  
  20082736.611 7 105535493.195 7      -806.880    22908487.009 7  93806424.749 7
      2023.973  
  23522928.486 7 123613823.517 7       182.481    23522928.486 7  96322459.884 7
       142.193  
  22431645.357 7 117879091.969 7      1923.144    22431645.357 7  91853837.898 7
      1498.554  
  21012599.984 7 110421958.204 7       368.353    21551956.205 7  88251657.877 7
     -2152.143  
  21551956.205 7 113256294.275 7     -2761.917    20702554.426 7  84773499.584 7
       456.034  
 24 01 02 10 00 03.5000000  0  7G32G23G18G27G10G24G15
  22908437.583 7 120384652.030 7      2597.192    20082751.966 7  82235512.122 7
      -628.847  
  20702543.288 7 108792599.266 7       585.425    21012592.975 7  86043055.615 7
       286.967  
  20082751.966 7 105535573.890 7      -807.020    22908437.583 7  93806222.361 7
      2023.786  
  23522925.012 7 123613805.264 7       182.583    23522925.012 7  96322445.660 7
       142.272  
  22431608.759 7 117878899.646 7      1923.318    22431608.759 7  91853688.036 7
      1498.689  
  21012592.975 7 110421921.373 7       368.274    21552008.761 7  88251873.083 7
     -2151.980  
  21552008.761 7 113256570.457 7     -2761.707    20702543.288 7  84773453.974 7
       456.175  
 24 01 02 10 00 03.6000000  0  7G32G23G18G27G10G24G15
  22908388.163 7 120384392.322 7      2596.955    20082767.325 7  82235575.012 7
      -628.956  
  20702532.146 7 108792540.715 7       585.605    21012585.968 7  86043026.922 7
       286.905  
  20082767.325 7 105535654.599 7      -807.161    22908388.163 7  93806019.992 7
      2023.601  
  23522921.537 7 123613787.001 7       182.683    23522921.537 7  96322431.429 7
       142.351  
  22431572.158 7 117878707.305 7      1923.491    22431572.158 7  91853538.160 7
      1498.824  
  21012585.968 7 110421884.549 7       368.195    21552061.312 7  88252088.273 7
     -2151.817  
  21552061.312 7 113256846.617 7     -2761.499    20702532.146 7  84773408.349 7
       456.315  
 24 01 02 10 00 03.7000000  0  7G32G23G18G27G10G24G15
  22908338.746 7 120384132.639 7      2596.719    20082782.686 7  82235637.913 7
      -629.065  
  20702521.000 7 108792482.145 7       585.784    21012578.962 7  86042998.234 7
       286.844  
  20082782.686 7 105535735.322 7      -807.300    22908338.746 7  93805817.641 7
      2023.417  
  23522918.060 7 123613768.727 7       182.783    23522918.060 7  96322417.190 7
       142.428  
  22431535.553 7 117878514.948 7      1923.662    22431535.553 7  91853388.271 7
      1498.957  
  21012578.962 7 110421847.734 7       368.116    21552113.860 7  88252303.447 7
     -2151.656  
  21552113.860 7 113257122.757 7     -2761.292    20702521.000 7  84773362.711 7
       456.455  
 24 01 02 10 00 03.8000000  0  7G32G23G18G27G10G24G15
  22908289.335 7 120383872.979 7      2596.484    20082798.050 7  82235700.825 7
      -629.173  
  20702509.851 7 108792423.558 7       585.961    21012571.958 7  86042969.553 7
       286.782  
  20082798.050 7 105535816.059 7      -807.439    22908289.335 7  93805615.308 7
      2023.235  
  23522914.580 7 123613750.444 7       182.881    23522914.580 7  96322402.944 7
       142.504  
  22431498.946 7 117878322.573 7      1923.832    22431498.946 7  91853238.369 7
      1499.090  
  21012571.958 7 110421810.926 7       368.037    21552166.404 7  88252518.604 7
     -2151.496  
  21552166.404 7 113257398.875 7     -2761.087    20702509.851 7  84773317.058 7
       456.593  
 24 01 02 10 00 03.9000000  0  7G32G23G18G27G10G24G15
  22908239.928 7 120383613.342 7      2596.251    20082813.416 7  82235763.748 7
      -629.281  
  20702498.699 7 108792364.953 7       586.137    21012564.955 7  86042940.878 7
       286.720  
  20082813.416 7 105535896.810 7      -807.578    22908239.928 7  93805412.994 7
      2023.053  
  23522911.099 7 123613732.151 7       182.978    23522911.099 7  96322388.689 7
       142.580  
  22431462.335 7 117878130.182 7      1924.000    22431462.335 7  91853088.453 7
      1499.221  
  21012564.955 7 110421774.126 7       367.958    21552218.943 7  88252733.746 7
     -2151.338  
  21552218.943 7 113257674.974 7     -2760.883    20702498.699 7  84773271.392 7
       456.730  
 24 01 02 10 00 04.0000000  0  7G32G23G18G27G10G24G15
  22908190.525 7 120383353.728 7      2596.020    20082828.785 7  82235826.681 7
      -629.389  
  20702487.544 7 108792306.331 7       586.311    21012557.954 7  86042912.209 7
       286.659  
  20082828.785 7 105535977.574 7      -807.716    22908190.525 7  93805210.697 7
      2022.873  
  23522907.617 7 123613713.849 7       183.074    23522907.617 7  96322374.428 7
       142.655  
  22431425.721 7 117877937.773 7      1924.168    22431425.721 7  91852938.524 7
      1499.351  
  21012557.954 7 110421737.335 7       367.879    21552271.479 7  88252948.872 7
     -2151.180  
  21552271.479 7 113257951.052 7     -2760.681    20702487.544 7  84773225.712 7
       456.866  
 24 01 02 10 00 04.1000000  0  7G32G23G18G27G10G24G15
  22908141.126 7 120383094.138 7      2595.790    20082844.157 7  82235889.626 7
      -629.496  
  20702476.385 7 108792247.691 7       586.484    21012550.954 7  86042883.546 7
       286.598  
  20082844.157 7 105536058.353 7      -807.853    22908141.126 7  93805008.419 7
      2022.693  
  23522904.132 7 123613695.537 7       183.168    23522904.132 7  96322360.158 7
       142.729  
  22431389.103 7 117877745.348 7      1924.334    22431389.103 7  91852788.583 7
      1499.481  
  21012550.954 7 110421700.551 7       367.800    21552324.011 7  88253163.982 7
     -2151.024  
  21552324.011 7 113258227.110 7     -2760.481    20702476.385 7  84773180.019 7
       457.001  
 24 01 02 10 00 04.2000000  0  7G32G23G18G27G10G24G15
  22908091.732 7 120382834.570 7      2595.561    20082859.531 7  82235952.581 7
      -629.603  
  20702465.223 7 108792189.034 7       586.656    21012543.956 7  86042854.889 7
       286.536  
  20082859.531 7 105536139.145 7      -807.990    22908091.732 7  93804806.159 7
      2022.515  
  23522900.645 7 123613677.215 7       183.262    23522900.645 7  96322345.882 7
       142.801  
  22431352.483 7 117877552.906 7      1924.499    22431352.483 7  91852638.628 7
      1499.609  
  21012543.956 7 110421663.774 7       367.722    21552376.540 7  88253379.077 7
     -2150.869  
  21552376.540 7 113258503.148 7     -2760.282    20702465.223 7  84773134.312 7
       457.135  
 24 01 02 10 00 04.3000000  0  7G32G23G18G27G10G24G15
  22908042.343 7 120382575.025 7      2595.334    20082874.908 7  82236015.546 7
      -629.709  
  20702454.058 7 108792130.360 7       586.827    21012536.959 7  86042826.239 7
       286.475  
  20082874.908 7 105536219.951 7      -808.126    22908042.343 7  93804603.916 7
      2022.338  
  23522897.157 7 123613658.884 7       183.354    23522897.157 7  96322331.598 7
       142.874  
  22431315.859 7 117877360.448 7      1924.662    22431315.859 7  91852488.661 7
      1499.737  
  21012536.959 7 110421627.006 7       367.643    21552429.064 7  88253594.156 7
     -2150.716  
  21552429.064 7 113258779.167 7     -2760.085    20702454.058 7  84773088.592 7
       457.267  
 24 01 02 10 00 04.4000000  0  7G32G23G18G27G10G24G15
  22907992.957 7 120382315.503 7      2595.108    20082890.287 7  82236078.522 7
      -629.815  
  20702442.889 7 108792071.669 7       586.996    21012529.964 7  86042797.594 7
       286.414  
  20082890.287 7 105536300.770 7      -808.262    22907992.957 7  93804401.691 7
      2022.162  
  23522893.667 7 123613640.544 7       183.446    23522893.667 7  96322317.307 7
       142.945  
  22431279.233 7 117877167.974 7      1924.825    22431279.233 7  91852338.681 7
      1499.864  
  21012529.964 7 110421590.246 7       367.564    21552481.585 7  88253809.220 7
     -2150.563  
  21552481.585 7 113259055.166 7     -2759.890    20702442.889 7  84773042.859 7
       457.399  
 24 01 02 10 00 04.5000000  0  7G32G23G18G27G10G24G15
  22907943.576 7 120382056.004 7      2594.884    20082905.669 7  82236141.509 7
      -629.920  
  20702431.717 7 108792012.961 7       587.163    21012522.970 7  86042768.956 7
       286.353  
  20082905.669 7 105536381.603 7      -808.397    22907943.576 7  93804199.483 7
      2021.988  
  23522890.175 7 123613622.195 7       183.536    23522890.175 7  96322303.009 7
       143.015  
  22431242.603 7 117876975.483 7      1924.986    22431242.603 7  91852188.688 7
      1499.989  
  21012522.970 7 110421553.493 7       367.486    21552534.102 7  88254024.269 7
     -2150.412  
  21552534.102 7 113259331.145 7     -2759.696    20702431.717 7  84772997.112 7
       457.530  
 24 01 02 10 00 04.6000000  0  7G32G23G18G27G10G24G15
  22907894.199 7 120381796.527 7      2594.661    20082921.054 7  82236204.506 7
      -630.025  
  20702420.542 7 108791954.236 7       587.330    21012515.978 7  86042740.324 7
       286.292  
  20082921.054 7 105536462.450 7      -808.532    22907894.199 7  93803997.293 7
      2021.814  
  23522886.682 7 123613603.837 7       183.625    23522886.682 7  96322288.704 7
       143.085  
  22431205.970 7 117876782.977 7      1925.147    22431205.970 7  91852038.683 7
      1500.114  
  21012515.978 7 110421516.749 7       367.408    21552586.616 7  88254239.302 7
     -2150.262  
  21552586.616 7 113259607.105 7     -2759.503    20702420.542 7  84772951.353 7
       457.659  
 24 01 02 10 00 04.7000000  0  7G32G23G18G27G10G24G15
  22907844.826 7 120381537.072 7      2594.440    20082936.441 7  82236267.514 7
      -630.130  
  20702409.364 7 108791895.495 7       587.495    21012508.987 7  86042711.698 7
       286.231  
  20082936.441 7 105536543.310 7      -808.666    22907844.826 7  93803795.121 7
      2021.641  
  23522883.187 7 123613585.470 7       183.713    23522883.187 7  96322274.392 7
       143.153  
  22431169.334 7 117876590.454 7      1925.305    22431169.334 7  91851888.666 7
      1500.238  
  21012508.987 7 110421480.012 7       367.329    21552639.125 7  88254454.321 7
     -2150.113  
  21552639.125 7 113259883.045 7     -2759.312    20702409.364 7  84772905.580 7
       457.788  
 24 01 02 10 00 04.8000000  0  7G32G23G18G27G10G24G15
  22907795.458 7 120381277.639 7      2594.220    20082951.831 7  82236330.532 7
      -630.234  
  20702398.183 7 108791836.737 7       587.658    21012501.998 7  86042683.078 7
       286.170  
  20082951.831 7 105536624.183 7      -808.800    22907795.458 7  93803592.965 7
      2021.470  
  23522879.690 7 123613567.095 7       183.800    23522879.690 7  96322260.074 7
       143.221  
  22431132.696 7 117876397.916 7      1925.463    22431132.696 7  91851738.636 7
      1500.361  
  21012501.998 7 110421443.283 7       367.251    21552691.632 7  88254669.325 7
     -2149.966  
  21552691.632 7 113260158.967 7     -2759.123    20702398.183 7  84772859.795 7
       457.916  
 24 01 02 10 00 04.9000000  0  7G32G23G18G27G10G24G15
  22907746.094 7 120381018.228 7      2594.001    20082967.223 7  82236393.561 7
      -630.338  
  20702386.999 7 108791777.963 7       587.821    21012495.010 7  86042654.464 7
       286.109  
  20082967.223 7 105536705.070 7      -808.934    22907746.094 7  93803390.827 7
      2021.299  
  23522876.192 7 123613548.710 7       183.886    23522876.192 7  96322245.748 7
       143.288  
  22431096.054 7 117876205.361 7      1925.620    22431096.054 7  91851588.593 7
      1500.483  
  21012495.010 7 110421406.562 7       367.173    21552744.134 7  88254884.314 7
     -2149.819  
  21552744.134 7 113260434.870 7     -2758.935    20702386.999 7  84772813.997 7
       458.042  
 24 01 02 10 00 05.0000000  0  7G32G23G18G27G10G24G15
  22907696.734 7 120380758.838 7      2593.784    20082982.618 7  82236456.600 7
      -630.441  
  20702375.811 7 108791719.173 7       587.982    21012488.024 7  86042625.856 7
       286.048  
  20082982.618 7 105536785.970 7      -809.066    22907696.734 7  93803188.705 7
      2021.130  
  23522872.692 7 123613530.317 7       183.971    23522872.692 7  96322231.416 7
       143.354  
  22431059.409 7 117876012.792 7      1925.776    22431059.409 7  91851438.539 7
      1500.604  
  21012488.024 7 110421369.848 7       367.095    21552796.633 7  88255099.289 7
     -2149.674  
  21552796.633 7 113260710.754 7     -2758.748    20702375.811 7  84772768.187 7
       458.168  
 24 01 02 10 00 05.1000000  0  7G32G23G18G27G10G24G15
  22907647.378 7 120380499.471 7      2593.568    20082998.015 7  82236519.649 7
      -630.544  
  20702364.621 7 108791660.367 7       588.141    21012481.039 7  86042597.254 7
       285.987  
  20082998.015 7 105536866.883 7      -809.199    22907647.378 7  93802986.601 7
      2020.962  
  23522869.190 7 123613511.916 7       184.055    23522869.190 7  96322217.078 7
       143.419  
  22431022.761 7 117875820.206 7      1925.930    22431022.761 7  91851288.473 7
      1500.725  
  21012481.039 7 110421333.143 7       367.017    21552849.129 7  88255314.249 7
     -2149.530  
  21552849.129 7 113260986.620 7     -2758.563    20702364.621 7  84772722.364 7
       458.292  
 24 01 02 10 00 05.2000000  0  7G32G23G18G27G10G24G15
  22907598.026 7 120380240.125 7      2593.353    20083013.415 7  82236582.709 7
      -630.647  
  20702353.428 7 108791601.545 7       588.300    21012474.056 7  86042568.658 7
       285.926  
  20083013.415 7 105536947.809 7      -809.330    22907598.026 7  93802784.513 7
      2020.795  
  23522865.687 7 123613493.507 7       184.138    23522865.687 7  96322202.732 7
       143.484  
  22430986.111 7 117875627.606 7      1926.083    22430986.111 7  91851138.394 7
      1500.844  
  21012474.056 7 110421296.445 7       366.939    21552901.621 7  88255529.195 7
     -2149.387  
  21552901.621 7 113261262.467 7     -2758.380    20702353.428 7  84772676.528 7
       458.416  
 24 01 02 10 00 05.3000000  0  7G32G23G18G27G10G24G15
  22907548.678 7 120379980.800 7      2593.140    20083028.817 7  82236645.778 7
      -630.749  
  20702342.231 7 108791542.707 7       588.457    21012467.074 7  86042540.069 7
       285.866  
  20083028.817 7 105537028.749 7      -809.462    22907548.678 7  93802582.442 7
      2020.628  
  23522862.182 7 123613475.089 7       184.219    23522862.182 7  96322188.381 7
       143.547  
  22430949.457 7 117875434.990 7      1926.235    22430949.457 7  91850988.304 7
      1500.963  
  21012467.074 7 110421259.755 7       366.861    21552954.109 7  88255744.126 7
     -2149.245  
  21552954.109 7 113261538.296 7     -2758.198    20702342.231 7  84772630.681 7
       458.538  
 24 01 02 10 00 05.4000000  0  7G32G23G18G27G10G24G15
  22907499.334 7 120379721.497 7      2592.928    20083044.222 7  82236708.859 7
      -630.851  
  20702331.032 7 108791483.853 7       588.613    21012460.093 7  86042511.485 7
       285.805  
  20083044.222 7 105537109.702 7      -809.593    22907499.334 7  93802380.387 7
      2020.463  
  23522858.676 7 123613456.663 7       184.300    23522858.676 7  96322174.023 7
       143.610  
  22430912.800 7 117875242.359 7      1926.386    22430912.800 7  91850838.202 7
      1501.080  
  21012460.093 7 110421223.073 7       366.783    21553006.594 7  88255959.044 7
     -2149.104  
  21553006.594 7 113261814.106 7     -2758.017    20702331.032 7  84772584.821 7
       458.660  
 24 01 02 10 00 05.5000000  0  7G32G23G18G27G10G24G15
  22907449.994 7 120379462.214 7      2592.717    20083059.629 7  82236771.949 7
      -630.953  
  20702319.829 7 108791424.984 7       588.768    21012453.114 7  86042482.908 7
       285.745  
  20083059.629 7 105537190.668 7      -809.723    22907449.994 7  93802178.349 7
      2020.299  
  23522855.168 7 123613438.229 7       184.380    23522855.168 7  96322159.659 7
       143.672  
  22430876.141 7 117875049.713 7      1926.536    22430876.141 7  91850688.088 7
      1501.197  
  21012453.114 7 110421186.398 7       366.705    21553059.076 7  88256173.947 7
     -2148.965  
  21553059.076 7 113262089.899 7     -2757.838    20702319.829 7  84772538.949 7
       458.780  
 24 01 02 10 00 05.6000000  0  7G32G23G18G27G10G24G15
  22907400.659 7 120379202.953 7      2592.508    20083075.039 7  82236835.049 7
      -631.054  
  20702308.624 7 108791366.100 7       588.921    21012446.137 7  86042454.336 7
       285.684  
  20083075.039 7 105537271.646 7      -809.853    22907400.659 7  93801976.327 7
      2020.136  
  23522851.658 7 123613419.787 7       184.458    23522851.658 7  96322145.288 7
       143.734  
  22430839.479 7 117874857.051 7      1926.685    22430839.479 7  91850537.962 7
      1501.313  
  21012446.137 7 110421149.732 7       366.628    21553111.554 7  88256388.837 7
     -2148.826  
  21553111.554 7 113262365.674 7     -2757.661    20702308.624 7  84772493.065 7
       458.900  
 24 01 02 10 00 05.7000000  0  7G32G23G18G27G10G24G15
  22907351.327 7 120378943.713 7      2592.300    20083090.451 7  82236898.160 7
      -631.155  
  20702297.416 7 108791307.200 7       589.073    21012439.161 7  86042425.771 7
       285.624  
  20083090.451 7 105537352.638 7      -809.982    22907351.327 7  93801774.322 7
      2019.974  
  23522848.148 7 123613401.337 7       184.536    23522848.148 7  96322130.912 7
       143.794  
  22430802.814 7 117874664.376 7      1926.833    22430802.814 7  91850387.825 7
      1501.428  
  21012439.161 7 110421113.073 7       366.550    21553164.029 7  88256603.713 7
     -2148.689  
  21553164.029 7 113262641.431 7     -2757.484    20702297.416 7  84772447.169 7
       459.018  
 24 01 02 10 00 05.8000000  0  7G32G23G18G27G10G24G15
  22907301.999 7 120378684.493 7      2592.093    20083105.866 7  82236961.280 7
      -631.255  
  20702286.205 7 108791248.285 7       589.224    21012432.187 7  86042397.212 7
       285.563  
  20083105.866 7 105537433.643 7      -810.111    22907301.999 7  93801572.332 7
      2019.813  
  23522844.635 7 123613382.880 7       184.612    23522844.635 7  96322116.530 7
       143.854  
  22430766.146 7 117874471.685 7      1926.980    22430766.146 7  91850237.677 7
      1501.542  
  21012432.187 7 110421076.422 7       366.473    21553216.500 7  88256818.575 7
     -2148.553  
  21553216.500 7 113262917.171 7     -2757.310    20702286.205 7  84772401.261 7
       459.136  
 24 01 02 10 00 05.9000000  0  7G32G23G18G27G10G24G15
  22907252.675 7 120378425.294 7      2591.888    20083121.283 7  82237024.411 7
      -631.355  
  20702274.991 7 108791189.355 7       589.374    21012425.214 7  86042368.658 7
       285.503  
  20083121.283 7 105537514.660 7      -810.239    22907252.675 7  93801370.359 7
      2019.653  
  23522841.121 7 123613364.415 7       184.688    23522841.121 7  96322102.141 7
       143.913  
  22430729.476 7 117874278.980 7      1927.125    22430729.476 7  91850087.517 7
      1501.656  
  21012425.214 7 110421039.778 7       366.395    21553268.969 7  88257033.423 7
     -2148.418  
  21553268.969 7 113263192.893 7     -2757.136    20702274.991 7  84772355.342 7
       459.253  
 24 01 02 10 00 06.0000000  0  7G32G23G18G27G10G24G15
  22907203.355 7 120378166.116 7      2591.684    20083136.702 7  82237087.551 7
      -631.455  
  20702263.774 7 108791130.410 7       589.523    21012418.242 7  86042340.111 7
       285.443  
  20083136.702 7 105537595.691 7      -810.367    22907203.355 7  93801168.402 7
      2019.494  
  23522837.606 7 123613345.942 7       184.763    23522837.606 7  96322087.747 7
       143.971  
  22430692.802 7 117874086.260 7      1927.270    22430692.802 7  91849937.345 7
      1501.769  
  21012418.242 7 110421003.143 7       366.318    21553321.433 7  88257248.258 7
     -2148.284  
  21553321.433 7 113263468.598 7     -2756.964    20702263.774 7  84772309.411 7
       459.368  
 24 01 02 10 00 06.1000000  0  7G32G23G18G27G10G24G15
  22907154.039 7 120377906.957 7      2591.481    20083152.124 7  82237150.702 7
      -631.554  
  20702252.554 7 108791071.451 7       589.670    21012411.272 7  86042311.570 7
       285.382  
  20083152.124 7 105537676.734 7      -810.495    22907154.039 7  93800966.460 7
      2019.336  
  23522834.090 7 123613327.462 7       184.836    23522834.090 7  96322073.347 7
       144.028  
  22430656.126 7 117873893.526 7      1927.413    22430656.126 7  91849787.163 7
      1501.880  
  21012411.272 7 110420966.515 7       366.241    21553373.895 7  88257463.080 7
     -2148.151  
  21553373.895 7 113263744.286 7     -2756.794    20702252.554 7  84772263.468 7
       459.483  
 24 01 02 10 00 06.2000000  0  7G32G23G18G27G10G24G15
  22907104.726 7 120377647.819 7      2591.279    20083167.549 7  82237213.862 7
      -631.653  
  20702241.332 7 108791012.476 7       589.816    21012404.303 7  86042283.035 7
       285.322  
  20083167.549 7 105537757.790 7      -810.622    22907104.726 7  93800764.535 7
      2019.179  
  23522830.572 7 123613308.975 7       184.909    23522830.572 7  96322058.941 7
       144.085  
  22430619.447 7 117873700.777 7      1927.555    22430619.447 7  91849636.969 7
      1501.991  
  21012404.303 7 110420929.894 7       366.163    21553426.354 7  88257677.889 7
     -2148.019  
  21553426.354 7 113264019.957 7     -2756.624    20702241.332 7  84772217.514 7
       459.597  
 24 01 02 10 00 06.3000000  0  7G32G23G18G27G10G24G15
  22907055.418 7 120377388.701 7      2591.079    20083182.976 7  82237277.032 7
      -631.752  
  20702230.106 7 108790953.487 7       589.961    21012397.336 7  86042254.505 7
       285.262  
  20083182.976 7 105537838.858 7      -810.749    22907055.418 7  93800562.625 7
      2019.023  
  23522827.052 7 123613290.480 7       184.981    23522827.052 7  96322044.530 7
       144.141  
  22430582.766 7 117873508.015 7      1927.697    22430582.766 7  91849486.765 7
      1502.101  
  21012397.336 7 110420893.282 7       366.086    21553478.809 7  88257892.684 7
     -2147.888  
  21553478.809 7 113264295.611 7     -2756.456    20702230.106 7  84772171.549 7
       459.710  
 24 01 02 10 00 06.4000000  0  7G32G23G18G27G10G24G15
  22907006.113 7 120377129.604 7      2590.880    20083198.405 7  82237340.212 7
      -631.850  
  20702218.878 7 108790894.484 7       590.105    21012390.371 7  86042225.982 7
       285.202  
  20083198.405 7 105537919.939 7      -810.875    22907006.113 7  93800360.730 7
      2018.867  
  23522823.531 7 123613271.979 7       185.051    23522823.531 7  96322030.113 7
       144.196  
  22430546.082 7 117873315.238 7      1927.837    22430546.082 7  91849336.549 7
      1502.211  
  21012390.371 7 110420856.677 7       366.009    21553531.261 7  88258107.466 7
     -2147.758  
  21553531.261 7 113264571.248 7     -2756.290    20702218.878 7  84772125.572 7
       459.822  
 24 01 02 10 00 06.5000000  0  7G32G23G18G27G10G24G15
  22906956.812 7 120376870.525 7      2590.682    20083213.836 7  82237403.402 7
      -631.948  
  20702207.648 7 108790835.466 7       590.248    21012383.406 7  86042197.465 7
       285.142  
  20083213.836 7 105538001.033 7      -811.000    22906956.812 7  93800158.851 7
      2018.713  
  23522820.009 7 123613253.470 7       185.121    23522820.009 7  96322015.691 7
       144.250  
  22430509.395 7 117873122.447 7      1927.976    22430509.395 7  91849186.323 7
      1502.319  
  21012383.406 7 110420820.080 7       365.932    21553583.710 7  88258322.236 7
     -2147.630  
  21553583.710 7 113264846.869 7     -2756.125    20702207.648 7  84772079.584 7
       459.933  
 24 01 02 10 00 06.6000000  0  7G32G23G18G27G10G24G15
  22906907.515 7 120376611.467 7      2590.485    20083229.270 7  82237466.602 7
      -632.046  
  20702196.414 7 108790776.435 7       590.389    21012376.444 7  86042168.954 7
       285.082  
  20083229.270 7 105538082.139 7      -811.126    22906907.515 7  93799956.987 7
      2018.560  
  23522816.486 7 123613234.955 7       185.190    23522816.486 7  96322001.263 7
       144.304  
  22430472.705 7 117872929.643 7      1928.115    22430472.705 7  91849036.085 7
      1502.427  
  21012376.444 7 110420783.491 7       365.855    21553636.155 7  88258536.992 7
     -2147.502  
  21553636.155 7 113265122.473 7     -2755.961    20702196.414 7  84772033.585 7
       460.043  
 24 01 02 10 00 06.7000000  0  7G32G23G18G27G10G24G15
  22906858.222 7 120376352.428 7      2590.290    20083244.707 7  82237529.812 7
      -632.143  
  20702185.178 7 108790717.389 7       590.529    21012369.482 7  86042140.449 7
       285.022  
  20083244.707 7 105538163.258 7      -811.250    22906858.222 7  93799755.139 7
      2018.408  
  23522812.961 7 123613216.432 7       185.258    23522812.961 7  96321986.830 7
       144.357  
  22430436.013 7 117872736.824 7      1928.252    22430436.013 7  91848885.837 7
      1502.534  
  21012369.482 7 110420746.909 7       365.778    21553688.598 7  88258751.736 7
     -2147.375  
  21553688.598 7 113265398.061 7     -2755.798    20702185.178 7  84771987.576 7
       460.153  
 24 01 02 10 00 06.8000000  0  7G32G23G18G27G10G24G15
  22906808.932 7 120376093.409 7      2590.096    20083260.146 7  82237593.031 7
      -632.240  
  20702173.940 7 108790658.329 7       590.669    21012362.523 7  86042111.949 7
       284.962  
  20083260.146 7 105538244.389 7      -811.375    22906808.932 7  93799553.306 7
      2018.256  
  23522809.435 7 123613197.903 7       185.325    23522809.435 7  96321972.392 7
       144.409  
  22430399.318 7 117872543.993 7      1928.388    22430399.318 7  91848735.579 7
      1502.640  
  21012362.523 7 110420710.335 7       365.701    21553741.038 7  88258966.467 7
     -2147.250  
  21553741.038 7 113265673.633 7     -2755.637    20702173.940 7  84771941.555 7
       460.261  
 24 01 02 10 00 06.9000000  0  7G32G23G18G27G10G24G15
  22906759.646 7 120375834.409 7      2589.903    20083275.587 7  82237656.260 7
      -632.337  
  20702162.698 7 108790599.255 7       590.807    21012355.564 7  86042083.456 7
       284.902  
  20083275.587 7 105538325.533 7      -811.499    22906759.646 7  93799351.488 7
      2018.106  
  23522805.908 7 123613179.367 7       185.391    23522805.908 7  96321957.949 7
       144.460  
  22430362.621 7 117872351.147 7      1928.523    22430362.621 7  91848585.309 7
      1502.745  
  21012355.564 7 110420673.769 7       365.625    21553793.474 7  88259181.186 7
     -2147.125  
  21553793.474 7 113265949.189 7     -2755.477    20702162.698 7  84771895.523 7
       460.369  
 24 01 02 10 00 07.0000000  0  7G32G23G18G27G10G24G15
  22906710.364 7 120375575.428 7      2589.711    20083291.030 7  82237719.498 7
      -632.433  
  20702151.454 7 108790540.168 7       590.944    21012348.607 7  86042054.969 7
       284.843  
  20083291.030 7 105538406.689 7      -811.622    22906710.364 7  93799149.685 7
      2017.956  
  23522802.380 7 123613160.825 7       185.456    23522802.380 7  96321943.500 7
       144.511  
  22430325.921 7 117872158.288 7      1928.658    22430325.921 7  91848435.030 7
      1502.850  
  21012348.607 7 110420637.210 7       365.548    21553845.908 7  88259395.892 7
     -2147.002  
  21553845.908 7 113266224.729 7     -2755.319    20702151.454 7  84771849.481 7
       460.475  
 24 01 02 10 00 07.1000000  0  7G32G23G18G27G10G24G15
  22906661.085 7 120375316.467 7      2589.520    20083306.476 7  82237782.746 7
      -632.529  
  20702140.208 7 108790481.066 7       591.079    21012341.652 7  86042026.488 7
       284.783  
  20083306.476 7 105538487.858 7      -811.745    22906661.085 7  93798947.896 7
      2017.808  
  23522798.850 7 123613142.276 7       185.520    23522798.850 7  96321929.046 7
       144.561  
  22430289.219 7 117871965.416 7      1928.791    22430289.219 7  91848284.739 7
      1502.954  
  21012341.652 7 110420600.659 7       365.471    21553898.338 7  88259610.587 7
     -2146.879  
  21553898.338 7 113266500.253 7     -2755.162    20702140.208 7  84771803.428 7
       460.581  
 24 01 02 10 00 07.2000000  0  7G32G23G18G27G10G24G15
  22906611.810 7 120375057.524 7      2589.331    20083321.924 7  82237846.004 7
      -632.624  
  20702128.958 7 108790421.952 7       591.214    21012334.698 7  86041998.012 7
       284.723  
  20083321.924 7 105538569.038 7      -811.868    22906611.810 7  93798746.123 7
      2017.660  
  23522795.319 7 123613123.721 7       185.583    23522795.319 7  96321914.588 7
       144.610  
  22430252.514 7 117871772.530 7      1928.923    22430252.514 7  91848134.439 7
      1503.057  
  21012334.698 7 110420564.116 7       365.395    21553950.766 7  88259825.268 7
     -2146.758  
  21553950.766 7 113266775.761 7     -2755.006    20702128.958 7  84771757.365 7
       460.686  
 24 01 02 10 00 07.3000000  0  7G32G23G18G27G10G24G15
  22906562.538 7 120374798.601 7      2589.142    20083337.375 7  82237909.271 7
      -632.720  
  20702117.707 7 108790362.824 7       591.348    21012327.746 7  86041969.543 7
       284.664  
  20083337.375 7 105538650.231 7      -811.990    22906562.538 7  93798544.364 7
      2017.514  
  23522791.787 7 123613105.160 7       185.646    23522791.787 7  96321900.124 7
       144.659  
  22430215.807 7 117871579.631 7      1929.054    22430215.807 7  91847984.128 7
      1503.159  
  21012327.746 7 110420527.580 7       365.318    21554003.190 7  88260039.938 7
     -2146.637  
  21554003.190 7 113267051.254 7     -2754.851    20702117.707 7  84771711.291 7
       460.790  
 24 01 02 10 00 07.4000000  0  7G32G23G18G27G10G24G15
  22906513.270 7 120374539.696 7      2588.955    20083352.827 7  82237972.548 7
      -632.814  
  20702106.453 7 108790303.682 7       591.480    21012320.795 7  86041941.080 7
       284.604  
  20083352.827 7 105538731.436 7      -812.112    22906513.270 7  93798342.620 7
      2017.368  
  23522788.253 7 123613086.592 7       185.707    23522788.253 7  96321885.656 7
       144.707  
  22430179.097 7 117871386.719 7      1929.185    22430179.097 7  91847833.807 7
      1503.261  
  21012320.795 7 110420491.052 7       365.242    21554055.612 7  88260254.596 7
     -2146.517  
  21554055.612 7 113267326.731 7     -2754.697    20702106.453 7  84771665.207 7
       460.894  
 24 01 02 10 00 07.5000000  0  7G32G23G18G27G10G24G15
  22906464.006 7 120374280.810 7      2588.769    20083368.283 7  82238035.834 7
      -632.909  
  20702095.196 7 108790244.528 7       591.611    21012313.845 7  86041912.622 7
       284.545  
  20083368.283 7 105538812.653 7      -812.233    22906464.006 7  93798140.891 7
      2017.223  
  23522784.719 7 123613068.018 7       185.768    23522784.719 7  96321871.183 7
       144.754  
  22430142.384 7 117871193.794 7      1929.314    22430142.384 7  91847683.476 7
      1503.362  
  21012313.845 7 110420454.532 7       365.165    21554108.030 7  88260469.242 7
     -2146.399  
  21554108.030 7 113267602.193 7     -2754.545    20702095.196 7  84771619.112 7
       460.996  
 24 01 02 10 00 07.6000000  0  7G32G23G18G27G10G24G15
  22906414.745 7 120374021.942 7      2588.584    20083383.740 7  82238099.129 7
      -633.003  
  20702083.937 7 108790185.360 7       591.742    21012306.897 7  86041884.171 7
       284.485  
  20083383.740 7 105538893.883 7      -812.354    22906414.745 7  93797939.176 7
      2017.079  
  23522781.183 7 123613049.438 7       185.828    23522781.183 7  96321856.705 7
       144.801  
  22430105.669 7 117871000.856 7      1929.443    22430105.669 7  91847533.135 7
      1503.462  
  21012306.897 7 110420418.019 7       365.089    21554160.446 7  88260683.876 7
     -2146.281  
  21554160.446 7 113267877.640 7     -2754.394    20702083.937 7  84771573.008 7
       461.097  
 24 01 02 10 00 07.7000000  0  7G32G23G18G27G10G24G15
  22906365.487 7 120373763.093 7      2588.401    20083399.200 7  82238162.434 7
      -633.097  
  20702072.675 7 108790126.179 7       591.871    21012299.950 7  86041855.725 7
       284.426  
  20083399.200 7 105538975.124 7      -812.475    22906365.487 7  93797737.475 7
      2016.936  
  23522777.647 7 123613030.853 7       185.886    23522777.647 7  96321842.223 7
       144.847  
  22430068.952 7 117870807.905 7      1929.570    22430068.952 7  91847382.784 7
      1503.561  
  21012299.950 7 110420381.514 7       365.013    21554212.859 7  88260898.498 7
     -2146.164  
  21554212.859 7 113268153.072 7     -2754.244    20702072.675 7  84771526.893 7
       461.198  
 24 01 02 10 00 07.8000000  0  7G32G23G18G27G10G24G15
  22906316.234 7 120373504.262 7      2588.218    20083414.662 7  82238225.749 7
      -633.191  
  20702061.411 7 108790066.986 7       591.999    21012293.005 7  86041827.286 7
       284.366  
  20083414.662 7 105539056.378 7      -812.595    22906316.234 7  93797535.788 7
      2016.793  
  23522774.109 7 123613012.261 7       185.944    23522774.109 7  96321827.736 7
       144.892  
  22430032.232 7 117870614.942 7      1929.697    22430032.232 7  91847232.422 7
      1503.660  
  21012293.005 7 110420345.016 7       364.937    21554265.269 7  88261113.109 7
     -2146.049  
  21554265.269 7 113268428.489 7     -2754.096    20702061.411 7  84771480.768 7
       461.298  
 24 01 02 10 00 07.9000000  0  7G32G23G18G27G10G24G15
  22906266.983 7 120373245.449 7      2588.037    20083430.126 7  82238289.073 7
      -633.284  
  20702050.144 7 108790007.779 7       592.126    21012286.061 7  86041798.852 7
       284.307  
  20083430.126 7 105539137.643 7      -812.714    22906266.983 7  93797334.116 7
      2016.652  
  23522770.570 7 123612993.664 7       186.002    23522770.570 7  96321813.244 7
       144.936  
  22429995.510 7 117870421.966 7      1929.822    22429995.510 7  91847082.052 7
      1503.758  
  21012286.061 7 110420308.527 7       364.861    21554317.677 7  88261327.708 7
     -2145.934  
  21554317.677 7 113268703.891 7     -2753.949    20702050.144 7  84771434.633 7
       461.397  
 24 01 02 10 00 08.0000000  0  7G32G23G18G27G10G24G15
  22906217.736 7 120372986.655 7      2587.856    20083445.593 7  82238352.406 7
      -633.377  
  20702038.875 7 108789948.561 7       592.252    21012279.119 7  86041770.424 7
       284.248  
  20083445.593 7 105539218.920 7      -812.834    22906217.736 7  93797132.458 7
      2016.511  
  23522767.030 7 123612975.061 7       186.058    23522767.030 7  96321798.749 7
       144.980  
  22429958.786 7 117870228.978 7      1929.947    22429958.786 7  91846931.671 7
      1503.855  
  21012279.119 7 110420272.044 7       364.784    21554370.081 7  88261542.295 7
     -2145.820  
  21554370.081 7 113268979.279 7     -2753.803    20702038.875 7  84771388.489 7
       461.495  
 24 01 02 10 00 08.1000000  0  7G32G23G18G27G10G24G15
  22906168.493 7 120372727.878 7      2587.677    20083461.062 7  82238415.748 7
      -633.470  
  20702027.604 7 108789889.329 7       592.377    21012272.178 7  86041742.002 7
       284.188  
  20083461.062 7 105539300.210 7      -812.953    22906168.493 7  93796930.814 7
      2016.372  
  23522763.489 7 123612956.452 7       186.113    23522763.489 7  96321784.248 7
       145.023  
  22429922.059 7 117870035.977 7      1930.071    22429922.059 7  91846781.281 7
      1503.951  
  21012272.178 7 110420235.570 7       364.708    21554422.483 7  88261756.872 7
     -2145.707  
  21554422.483 7 113269254.652 7     -2753.658    20702027.604 7  84771342.334 7
       461.593  
 24 01 02 10 00 08.2000000  0  7G32G23G18G27G10G24G15
  22906119.252 7 120372469.119 7      2587.499    20083476.533 7  82238479.100 7
      -633.562  
  20702016.330 7 108789830.085 7       592.501    21012265.238 7  86041713.587 7
       284.129  
  20083476.533 7 105539381.511 7      -813.071    22906119.252 7  93796729.184 7
      2016.233  
  23522759.947 7 123612937.838 7       186.168    23522759.947 7  96321769.744 7
       145.066  
  22429885.330 7 117869842.964 7      1930.193    22429885.330 7  91846630.881 7
      1504.047  
  21012265.238 7 110420199.103 7       364.633    21554474.882 7  88261971.437 7
     -2145.595  
  21554474.882 7 113269530.011 7     -2753.514    20702016.330 7  84771296.170 7
       461.689  
 24 01 02 10 00 08.3000000  0  7G32G23G18G27G10G24G15
  22906070.016 7 120372210.378 7      2587.321    20083492.006 7  82238542.460 7
      -633.654  
  20702005.054 7 108789770.829 7       592.624    21012258.300 7  86041685.177 7
       284.070  
  20083492.006 7 105539462.824 7      -813.189    22906070.016 7  93796527.567 7
      2016.095  
  23522756.403 7 123612919.219 7       186.221    23522756.403 7  96321755.235 7
       145.108  
  22429848.598 7 117869649.938 7      1930.315    22429848.598 7  91846480.471 7
      1504.142  
  21012258.300 7 110420162.643 7       364.557    21554527.278 7  88262185.991 7
     -2145.484  
  21554527.278 7 113269805.355 7     -2753.371    20702005.054 7  84771249.996 7
       461.785  
 24 01 02 10 00 08.4000000  0  7G32G23G18G27G10G24G15
  22906020.782 7 120371951.655 7      2587.145    20083507.482 7  82238605.830 7
      -633.746  
  20701993.775 7 108789711.560 7       592.746    21012251.364 7  86041656.772 7
